[
    {
        "name": "六必居潮州一品沙鍋粥中山總店/板橋美食/新北美食",
        "rating": 4.2,
        "vicinity": "板橋區中山路一段158號",
        "user_ratings_total": 4392,
        "location": {
            "lat": 25.0118142,
            "lng": 121.4659919
        },
        "place_id": "ChIJPwFtMx-oQjQRyDjE21ZvByc"
    },
    {
        "name": "六必居潮州一品沙鍋粥 民權店",
        "rating": 4.3,
        "vicinity": "板橋區民權路3號",
        "user_ratings_total": 4051,
        "location": {
            "lat": 25.0099118,
            "lng": 121.4629108
        },
        "place_id": "ChIJNZKIdx6oQjQRdPECsfSu_Rs"
    },
    {
        "name": "樂麵屋 Globalmall板橋車站",
        "rating": 4.1,
        "vicinity": "號 B1, No. 7, 縣民大道二段, 板橋區",
        "user_ratings_total": 1877,
        "location": {
            "lat": 25.0144468,
            "lng": 121.4637751
        },
        "place_id": "ChIJsWVdWhmoQjQRXSR6C4dqpIU"
    },
    {
        "name": "藝奇 日本料理岩板燒 板橋麗寶店",
        "rating": 4.6,
        "vicinity": "板橋區縣民大道二段3號6樓",
        "user_ratings_total": 4935,
        "location": {
            "lat": 25.01235609999999,
            "lng": 121.4619611
        },
        "place_id": "ChIJI_c3PRyoQjQRFSIy0wzjERk"
    },
    {
        "name": "齊味麻辣鴛鴦鍋",
        "rating": 4.1,
        "vicinity": "板橋區民權路41號",
        "user_ratings_total": 1888,
        "location": {
            "lat": 25.01095919999999,
            "lng": 121.4619384
        },
        "place_id": "ChIJS-FLMhyoQjQRbsJUs54BJ0E"
    },
    {
        "name": "鼎泰豐 板橋店",
        "rating": 4.5,
        "vicinity": "板橋區新站路28號B1",
        "user_ratings_total": 4781,
        "location": {
            "lat": 25.0135467,
            "lng": 121.4667508
        },
        "place_id": "ChIJxRJqSBmoQjQR3gtSHvJgkZk"
    },
    {
        "name": "小蒙牛頂級麻辣養生火鍋吃到飽Hotpot-（烤）板橋店",
        "rating": 4.3,
        "vicinity": "板橋區文化路一段145號",
        "user_ratings_total": 3706,
        "location": {
            "lat": 25.0157974,
            "lng": 121.4623143
        },
        "place_id": "ChIJX_qXiBmoQjQRmhvb-wUOPNA"
    },
    {
        "name": "金色三麥 板橋大遠百店",
        "rating": 4.1,
        "vicinity": "板橋區新站路28號遠東大樓9F",
        "user_ratings_total": 3335,
        "location": {
            "lat": 25.013651,
            "lng": 121.466765
        },
        "place_id": "ChIJIY2TAhmoQjQRYHgoXyW9EG0"
    },
    {
        "name": "Merci cafe'",
        "rating": 4.2,
        "vicinity": "板橋區新民街7巷17號",
        "user_ratings_total": 1657,
        "location": {
            "lat": 25.010337,
            "lng": 121.4634209
        },
        "place_id": "ChIJhTXJjh6oQjQRSKCh4Nlo93o"
    },
    {
        "name": "典藏33觀景餐廳",
        "rating": 4.1,
        "vicinity": "板橋區中山路一段161號33樓",
        "user_ratings_total": 1225,
        "location": {
            "lat": 25.0122763,
            "lng": 121.4655369
        },
        "place_id": "ChIJWWqX1R6oQjQRz9jEIsV5bIQ"
    },
    {
        "name": "Halla義式餐廳/Halla健康餐盒-板橋健康便當|健康餐盒|義式餐廳|好吃義大利麵|好吃餐廳|推薦美食餐廳",
        "rating": 4.1,
        "vicinity": "板橋區中山路一段158巷21號",
        "user_ratings_total": 914,
        "location": {
            "lat": 25.0113562,
            "lng": 121.4664451
        },
        "place_id": "ChIJf6L1Oh-oQjQRa45Xts-N7bg"
    },
    {
        "name": "林記溫體蔬菜羊肉",
        "rating": 4.2,
        "vicinity": "板橋區漢生東路73巷2號",
        "user_ratings_total": 190,
        "location": {
            "lat": 25.0162079,
            "lng": 121.4663279
        },
        "place_id": "ChIJOelZvagCaDQRrkJNdSszO2E"
    },
    {
        "name": "順億鮪魚專賣店-板橋店",
        "rating": 4.4,
        "vicinity": "板橋區縣民大道二段120號",
        "user_ratings_total": 1914,
        "location": {
            "lat": 25.015572,
            "lng": 121.4674791
        },
        "place_id": "ChIJoSSLWRioQjQRHygQxN38vV8"
    },
    {
        "name": "華川宴(板橋直營店)",
        "rating": 4.1,
        "vicinity": "板橋區文化路一段219號",
        "user_ratings_total": 546,
        "location": {
            "lat": 25.017277,
            "lng": 121.4636207
        },
        "place_id": "ChIJK1wh7xmoQjQR1qFktepAt0c"
    },
    {
        "name": "聚北海道鍋物 板橋環球店",
        "rating": 4.7,
        "vicinity": "板橋區縣民大道二段7號2樓",
        "user_ratings_total": 4541,
        "location": {
            "lat": 25.0136446,
            "lng": 121.4634852
        },
        "place_id": "ChIJUWXuQBmoQjQRUBiBYCNcK0A"
    },
    {
        "name": "新北市政府員工餐廳",
        "rating": 4.1,
        "vicinity": "板橋區中山路一段161號8樓",
        "user_ratings_total": 110,
        "location": {
            "lat": 25.012394,
            "lng": 121.465286
        },
        "place_id": "ChIJ76Ob1B6oQjQRxJj142dvXbY"
    },
    {
        "name": "望月樓",
        "rating": 4.1,
        "vicinity": "板橋區新站路16號百揚大樓48樓",
        "user_ratings_total": 989,
        "location": {
            "lat": 25.0130279,
            "lng": 121.4669529
        },
        "place_id": "ChIJuaevwBioQjQReYnBzgKe6g0"
    },
    {
        "name": "涮乃葉板橋遠百中山店",
        "rating": 4.1,
        "vicinity": "板橋區中山路一段152號10樓",
        "user_ratings_total": 2507,
        "location": {
            "lat": 25.0109601,
            "lng": 121.4644536
        },
        "place_id": "ChIJAVh27B6oQjQRMg-1liRgIA0"
    },
    {
        "name": "祥發養生蔬菜排骨麵食館 板橋美食&餐廳&小吃",
        "rating": 4.4,
        "vicinity": "板橋區漢生東路127號",
        "user_ratings_total": 485,
        "location": {
            "lat": 25.0144534,
            "lng": 121.4678481
        },
        "place_id": "ChIJkZSQhxioQjQR_Y0GAB3NWAo"
    }
]